[
  {"id":"city_berlin_de","name":"Berlin","countryIso2":"DE","lat":52.52,"lng":13.405,"population":3878000,"isCapital":true},
  {"id":"city_hamburg_de","name":"Hamburg","countryIso2":"DE","lat":53.551,"lng":9.994,"population":1906000,"isCapital":false},
  {"id":"city_munich_de","name":"München","countryIso2":"DE","lat":48.137,"lng":11.575,"population":1512000,"isCapital":false},
  {"id":"city_cologne_de","name":"Köln","countryIso2":"DE","lat":50.937,"lng":6.96,"population":1087000,"isCapital":false},
  {"id":"city_frankfurt_de","name":"Frankfurt am Main","countryIso2":"DE","lat":50.11,"lng":8.682,"population":773000,"isCapital":false},
  {"id":"city_paris_fr","name":"Paris","countryIso2":"FR","lat":48.857,"lng":2.352,"population":2103000,"isCapital":true},
  {"id":"city_marseille_fr","name":"Marseille","countryIso2":"FR","lat":43.297,"lng":5.381,"population":870000,"isCapital":false},
  {"id":"city_lyon_fr","name":"Lyon","countryIso2":"FR","lat":45.764,"lng":4.836,"population":522000,"isCapital":false},
  {"id":"city_london_gb","name":"London","countryIso2":"GB","lat":51.507,"lng":-0.128,"population":8982000,"isCapital":true},
  {"id":"city_manchester_gb","name":"Manchester","countryIso2":"GB","lat":53.483,"lng":-2.244,"population":553000,"isCapital":false},
  {"id":"city_edinburgh_gb","name":"Edinburgh","countryIso2":"GB","lat":55.953,"lng":-3.188,"population":527000,"isCapital":false},
  {"id":"city_madrid_es","name":"Madrid","countryIso2":"ES","lat":40.417,"lng":-3.703,"population":3332000,"isCapital":true},
  {"id":"city_barcelona_es","name":"Barcelona","countryIso2":"ES","lat":41.385,"lng":2.173,"population":1636000,"isCapital":false},
  {"id":"city_seville_es","name":"Sevilla","countryIso2":"ES","lat":37.389,"lng":-5.984,"population":688000,"isCapital":false},
  {"id":"city_rome_it","name":"Rom","countryIso2":"IT","lat":41.903,"lng":12.496,"population":2761000,"isCapital":true},
  {"id":"city_milan_it","name":"Mailand","countryIso2":"IT","lat":45.464,"lng":9.19,"population":1371000,"isCapital":false},
  {"id":"city_naples_it","name":"Neapel","countryIso2":"IT","lat":40.852,"lng":14.268,"population":914000,"isCapital":false},
  {"id":"city_venice_it","name":"Venedig","countryIso2":"IT","lat":45.44,"lng":12.316,"population":258000,"isCapital":false},
  {"id":"city_lisbon_pt","name":"Lissabon","countryIso2":"PT","lat":38.722,"lng":-9.139,"population":545000,"isCapital":true},
  {"id":"city_porto_pt","name":"Porto","countryIso2":"PT","lat":41.158,"lng":-8.629,"population":232000,"isCapital":false},
  {"id":"city_amsterdam_nl","name":"Amsterdam","countryIso2":"NL","lat":52.368,"lng":4.904,"population":921000,"isCapital":true},
  {"id":"city_rotterdam_nl","name":"Rotterdam","countryIso2":"NL","lat":51.924,"lng":4.478,"population":656000,"isCapital":false},
  {"id":"city_brussels_be","name":"Brüssel","countryIso2":"BE","lat":50.85,"lng":4.352,"population":1222000,"isCapital":true},
  {"id":"city_vienna_at","name":"Wien","countryIso2":"AT","lat":48.208,"lng":16.373,"population":1982000,"isCapital":true},
  {"id":"city_zurich_ch","name":"Zürich","countryIso2":"CH","lat":47.377,"lng":8.541,"population":436000,"isCapital":false},
  {"id":"city_geneva_ch","name":"Genf","countryIso2":"CH","lat":46.204,"lng":6.143,"population":203000,"isCapital":false},
  {"id":"city_bern_ch","name":"Bern","countryIso2":"CH","lat":46.948,"lng":7.447,"population":134000,"isCapital":true},
  {"id":"city_copenhagen_dk","name":"Kopenhagen","countryIso2":"DK","lat":55.676,"lng":12.568,"population":660000,"isCapital":true},
  {"id":"city_stockholm_se","name":"Stockholm","countryIso2":"SE","lat":59.329,"lng":18.069,"population":984000,"isCapital":true},
  {"id":"city_oslo_no","name":"Oslo","countryIso2":"NO","lat":59.913,"lng":10.752,"population":709000,"isCapital":true},
  {"id":"city_helsinki_fi","name":"Helsinki","countryIso2":"FI","lat":60.17,"lng":24.938,"population":658000,"isCapital":true},
  {"id":"city_reykjavik_is","name":"Reykjavík","countryIso2":"IS","lat":64.147,"lng":-21.942,"population":135000,"isCapital":true},
  {"id":"city_dublin_ie","name":"Dublin","countryIso2":"IE","lat":53.349,"lng":-6.26,"population":588000,"isCapital":true},
  {"id":"city_warsaw_pl","name":"Warschau","countryIso2":"PL","lat":52.23,"lng":21.011,"population":1863000,"isCapital":true},
  {"id":"city_krakow_pl","name":"Krakau","countryIso2":"PL","lat":50.065,"lng":19.945,"population":804000,"isCapital":false},
  {"id":"city_prague_cz","name":"Prag","countryIso2":"CZ","lat":50.076,"lng":14.437,"population":1357000,"isCapital":true},
  {"id":"city_budapest_hu","name":"Budapest","countryIso2":"HU","lat":47.498,"lng":19.04,"population":1685000,"isCapital":true},
  {"id":"city_bratislava_sk","name":"Bratislava","countryIso2":"SK","lat":48.149,"lng":17.107,"population":476000,"isCapital":true},
  {"id":"city_bucharest_ro","name":"Bukarest","countryIso2":"RO","lat":44.427,"lng":26.103,"population":1717000,"isCapital":true},
  {"id":"city_sofia_bg","name":"Sofia","countryIso2":"BG","lat":42.698,"lng":23.322,"population":1287000,"isCapital":true},
  {"id":"city_athens_gr","name":"Athen","countryIso2":"GR","lat":37.984,"lng":23.728,"population":664000,"isCapital":true},
  {"id":"city_belgrade_rs","name":"Belgrad","countryIso2":"RS","lat":44.787,"lng":20.457,"population":1197000,"isCapital":true},
  {"id":"city_zagreb_hr","name":"Zagreb","countryIso2":"HR","lat":45.815,"lng":15.982,"population":769000,"isCapital":true},
  {"id":"city_kyiv_ua","name":"Kyjiw","countryIso2":"UA","lat":50.45,"lng":30.524,"population":2952000,"isCapital":true},
  {"id":"city_moscow_ru","name":"Moskau","countryIso2":"RU","lat":55.756,"lng":37.617,"population":12655000,"isCapital":true},
  {"id":"city_stpetersburg_ru","name":"Sankt Petersburg","countryIso2":"RU","lat":59.939,"lng":30.316,"population":5384000,"isCapital":false},
  {"id":"city_istanbul_tr","name":"Istanbul","countryIso2":"TR","lat":41.008,"lng":28.978,"population":15462000,"isCapital":false},
  {"id":"city_ankara_tr","name":"Ankara","countryIso2":"TR","lat":39.933,"lng":32.86,"population":5663000,"isCapital":true},
  {"id":"city_nyc_us","name":"New York City","countryIso2":"US","lat":40.713,"lng":-74.006,"population":8336000,"isCapital":false},
  {"id":"city_la_us","name":"Los Angeles","countryIso2":"US","lat":34.052,"lng":-118.244,"population":3899000,"isCapital":false},
  {"id":"city_chicago_us","name":"Chicago","countryIso2":"US","lat":41.878,"lng":-87.63,"population":2746000,"isCapital":false},
  {"id":"city_washington_us","name":"Washington, D.C.","countryIso2":"US","lat":38.907,"lng":-77.037,"population":690000,"isCapital":true},
  {"id":"city_sf_us","name":"San Francisco","countryIso2":"US","lat":37.775,"lng":-122.419,"population":874000,"isCapital":false},
  {"id":"city_miami_us","name":"Miami","countryIso2":"US","lat":25.762,"lng":-80.192,"population":442000,"isCapital":false},
  {"id":"city_seattle_us","name":"Seattle","countryIso2":"US","lat":47.606,"lng":-122.332,"population":737000,"isCapital":false},
  {"id":"city_lasvegas_us","name":"Las Vegas","countryIso2":"US","lat":36.17,"lng":-115.14,"population":642000,"isCapital":false},
  {"id":"city_neworleans_us","name":"New Orleans","countryIso2":"US","lat":29.951,"lng":-90.072,"population":384000,"isCapital":false},
  {"id":"city_toronto_ca","name":"Toronto","countryIso2":"CA","lat":43.653,"lng":-79.383,"population":2794000,"isCapital":false},
  {"id":"city_vancouver_ca","name":"Vancouver","countryIso2":"CA","lat":49.283,"lng":-123.121,"population":662000,"isCapital":false},
  {"id":"city_montreal_ca","name":"Montreal","countryIso2":"CA","lat":45.502,"lng":-73.567,"population":1763000,"isCapital":false},
  {"id":"city_ottawa_ca","name":"Ottawa","countryIso2":"CA","lat":45.421,"lng":-75.697,"population":1017000,"isCapital":true},
  {"id":"city_mexicocity_mx","name":"Mexiko-Stadt","countryIso2":"MX","lat":19.433,"lng":-99.133,"population":9209000,"isCapital":true},
  {"id":"city_cancun_mx","name":"Cancún","countryIso2":"MX","lat":21.161,"lng":-86.851,"population":888000,"isCapital":false},
  {"id":"city_havana_cu","name":"Havanna","countryIso2":"CU","lat":23.113,"lng":-82.366,"population":2131000,"isCapital":true},
  {"id":"city_panamacity_pa","name":"Panama-Stadt","countryIso2":"PA","lat":8.983,"lng":-79.517,"population":880000,"isCapital":true},
  {"id":"city_bogota_co","name":"Bogotá","countryIso2":"CO","lat":4.711,"lng":-74.072,"population":7744000,"isCapital":true},
  {"id":"city_lima_pe","name":"Lima","countryIso2":"PE","lat":-12.046,"lng":-77.043,"population":9752000,"isCapital":true},
  {"id":"city_cusco_pe","name":"Cusco","countryIso2":"PE","lat":-13.532,"lng":-71.967,"population":428000,"isCapital":false},
  {"id":"city_quito_ec","name":"Quito","countryIso2":"EC","lat":-0.18,"lng":-78.468,"population":2011000,"isCapital":true},
  {"id":"city_lapaz_bo","name":"La Paz","countryIso2":"BO","lat":-16.49,"lng":-68.119,"population":816000,"isCapital":true},
  {"id":"city_santiago_cl","name":"Santiago de Chile","countryIso2":"CL","lat":-33.449,"lng":-70.669,"population":6257000,"isCapital":true},
  {"id":"city_buenosaires_ar","name":"Buenos Aires","countryIso2":"AR","lat":-34.604,"lng":-58.382,"population":3121000,"isCapital":true},
  {"id":"city_riodejaneiro_br","name":"Rio de Janeiro","countryIso2":"BR","lat":-22.907,"lng":-43.173,"population":6748000,"isCapital":false},
  {"id":"city_saopaulo_br","name":"São Paulo","countryIso2":"BR","lat":-23.551,"lng":-46.633,"population":12325000,"isCapital":false},
  {"id":"city_brasilia_br","name":"Brasília","countryIso2":"BR","lat":-15.794,"lng":-47.883,"population":3055000,"isCapital":true},
  {"id":"city_montevideo_uy","name":"Montevideo","countryIso2":"UY","lat":-34.902,"lng":-56.164,"population":1319000,"isCapital":true},
  {"id":"city_caracas_ve","name":"Caracas","countryIso2":"VE","lat":10.48,"lng":-66.904,"population":2946000,"isCapital":true},
  {"id":"city_cairo_eg","name":"Kairo","countryIso2":"EG","lat":30.044,"lng":31.236,"population":10025000,"isCapital":true},
  {"id":"city_alexandria_eg","name":"Alexandria","countryIso2":"EG","lat":31.2,"lng":29.919,"population":5381000,"isCapital":false},
  {"id":"city_casablanca_ma","name":"Casablanca","countryIso2":"MA","lat":33.573,"lng":-7.59,"population":3359000,"isCapital":false},
  {"id":"city_marrakesh_ma","name":"Marrakesch","countryIso2":"MA","lat":31.63,"lng":-7.989,"population":929000,"isCapital":false},
  {"id":"city_tunis_tn","name":"Tunis","countryIso2":"TN","lat":36.806,"lng":10.181,"population":639000,"isCapital":true},
  {"id":"city_lagos_ng","name":"Lagos","countryIso2":"NG","lat":6.524,"lng":3.379,"population":14862000,"isCapital":false},
  {"id":"city_abuja_ng","name":"Abuja","countryIso2":"NG","lat":9.077,"lng":7.399,"population":1236000,"isCapital":true},
  {"id":"city_accra_gh","name":"Accra","countryIso2":"GH","lat":5.603,"lng":-0.187,"population":2388000,"isCapital":true},
  {"id":"city_dakar_sn","name":"Dakar","countryIso2":"SN","lat":14.717,"lng":-17.468,"population":1146000,"isCapital":true},
  {"id":"city_addisababa_et","name":"Addis Abeba","countryIso2":"ET","lat":9.032,"lng":38.742,"population":3384000,"isCapital":true},
  {"id":"city_nairobi_ke","name":"Nairobi","countryIso2":"KE","lat":-1.292,"lng":36.822,"population":4397000,"isCapital":true},
  {"id":"city_daressalaam_tz","name":"Daressalam","countryIso2":"TZ","lat":-6.793,"lng":39.208,"population":4364000,"isCapital":false},
  {"id":"city_kinshasa_cd","name":"Kinshasa","countryIso2":"CD","lat":-4.442,"lng":15.266,"population":14342000,"isCapital":true},
  {"id":"city_luanda_ao","name":"Luanda","countryIso2":"AO","lat":-8.839,"lng":13.289,"population":8330000,"isCapital":true},
  {"id":"city_johannesburg_za","name":"Johannesburg","countryIso2":"ZA","lat":-26.204,"lng":28.047,"population":5635000,"isCapital":false},
  {"id":"city_capetown_za","name":"Kapstadt","countryIso2":"ZA","lat":-33.925,"lng":18.424,"population":4618000,"isCapital":true},
  {"id":"city_antananarivo_mg","name":"Antananarivo","countryIso2":"MG","lat":-18.879,"lng":47.508,"population":1275000,"isCapital":true},
  {"id":"city_dubai_ae","name":"Dubai","countryIso2":"AE","lat":25.204,"lng":55.271,"population":3331000,"isCapital":false},
  {"id":"city_abudhabi_ae","name":"Abu Dhabi","countryIso2":"AE","lat":24.454,"lng":54.377,"population":1483000,"isCapital":true},
  {"id":"city_riyadh_sa","name":"Riad","countryIso2":"SA","lat":24.713,"lng":46.675,"population":7676000,"isCapital":true},
  {"id":"city_doha_qa","name":"Doha","countryIso2":"QA","lat":25.286,"lng":51.533,"population":1186000,"isCapital":true},
  {"id":"city_telaviv_il","name":"Tel Aviv","countryIso2":"IL","lat":32.085,"lng":34.782,"population":460000,"isCapital":false},
  {"id":"city_jerusalem_il","name":"Jerusalem","countryIso2":"IL","lat":31.769,"lng":35.216,"population":936000,"isCapital":true},
  {"id":"city_beirut_lb","name":"Beirut","countryIso2":"LB","lat":33.894,"lng":35.502,"population":361000,"isCapital":true},
  {"id":"city_tehran_ir","name":"Teheran","countryIso2":"IR","lat":35.689,"lng":51.389,"population":8694000,"isCapital":true},
  {"id":"city_baghdad_iq","name":"Bagdad","countryIso2":"IQ","lat":33.315,"lng":44.366,"population":7145000,"isCapital":true},
  {"id":"city_kabul_af","name":"Kabul","countryIso2":"AF","lat":34.555,"lng":69.207,"population":4602000,"isCapital":true},
  {"id":"city_karachi_pk","name":"Karatschi","countryIso2":"PK","lat":24.861,"lng":67.01,"population":14910000,"isCapital":false},
  {"id":"city_islamabad_pk","name":"Islamabad","countryIso2":"PK","lat":33.694,"lng":73.048,"population":1015000,"isCapital":true},
  {"id":"city_delhi_in","name":"Neu-Delhi","countryIso2":"IN","lat":28.614,"lng":77.209,"population":16787000,"isCapital":true},
  {"id":"city_mumbai_in","name":"Mumbai","countryIso2":"IN","lat":19.076,"lng":72.878,"population":12442000,"isCapital":false},
  {"id":"city_kolkata_in","name":"Kalkutta","countryIso2":"IN","lat":22.573,"lng":88.364,"population":4497000,"isCapital":false},
  {"id":"city_bangalore_in","name":"Bengaluru","countryIso2":"IN","lat":12.972,"lng":77.594,"population":8443000,"isCapital":false},
  {"id":"city_dhaka_bd","name":"Dhaka","countryIso2":"BD","lat":23.811,"lng":90.412,"population":8906000,"isCapital":true},
  {"id":"city_kathmandu_np","name":"Kathmandu","countryIso2":"NP","lat":27.717,"lng":85.324,"population":1442000,"isCapital":true},
  {"id":"city_colombo_lk","name":"Colombo","countryIso2":"LK","lat":6.927,"lng":79.861,"population":753000,"isCapital":true},
  {"id":"city_bangkok_th","name":"Bangkok","countryIso2":"TH","lat":13.756,"lng":100.502,"population":10539000,"isCapital":true},
  {"id":"city_hanoi_vn","name":"Hanoi","countryIso2":"VN","lat":21.028,"lng":105.804,"population":8054000,"isCapital":true},
  {"id":"city_hochiminh_vn","name":"Ho-Chi-Minh-Stadt","countryIso2":"VN","lat":10.823,"lng":106.63,"population":8993000,"isCapital":false},
  {"id":"city_phnompenh_kh","name":"Phnom Penh","countryIso2":"KH","lat":11.556,"lng":104.928,"population":2130000,"isCapital":true},
  {"id":"city_kualalumpur_my","name":"Kuala Lumpur","countryIso2":"MY","lat":3.139,"lng":101.687,"population":1808000,"isCapital":true},
  {"id":"city_singapore_sg","name":"Singapur","countryIso2":"SG","lat":1.352,"lng":103.82,"population":5686000,"isCapital":true},
  {"id":"city_jakarta_id","name":"Jakarta","countryIso2":"ID","lat":-6.209,"lng":106.846,"population":10562000,"isCapital":true},
  {"id":"city_manila_ph","name":"Manila","countryIso2":"PH","lat":14.6,"lng":120.984,"population":1780000,"isCapital":true},
  {"id":"city_beijing_cn","name":"Peking","countryIso2":"CN","lat":39.904,"lng":116.407,"population":21540000,"isCapital":true},
  {"id":"city_shanghai_cn","name":"Shanghai","countryIso2":"CN","lat":31.23,"lng":121.474,"population":24870000,"isCapital":false},
  {"id":"city_hongkong_hk","name":"Hongkong","countryIso2":"HK","lat":22.319,"lng":114.169,"population":7482000,"isCapital":false},
  {"id":"city_seoul_kr","name":"Seoul","countryIso2":"KR","lat":37.566,"lng":126.978,"population":9776000,"isCapital":true},
  {"id":"city_busan_kr","name":"Busan","countryIso2":"KR","lat":35.18,"lng":129.075,"population":3449000,"isCapital":false},
  {"id":"city_pyongyang_kp","name":"Pjöngjang","countryIso2":"KP","lat":39.04,"lng":125.762,"population":2870000,"isCapital":true},
  {"id":"city_tokyo_jp","name":"Tokio","countryIso2":"JP","lat":35.677,"lng":139.65,"population":13960000,"isCapital":true},
  {"id":"city_osaka_jp","name":"Osaka","countryIso2":"JP","lat":34.694,"lng":135.502,"population":2691000,"isCapital":false},
  {"id":"city_kyoto_jp","name":"Kyoto","countryIso2":"JP","lat":35.012,"lng":135.768,"population":1464000,"isCapital":false},
  {"id":"city_ulaanbaatar_mn","name":"Ulaanbaatar","countryIso2":"MN","lat":47.886,"lng":106.906,"population":1645000,"isCapital":true},
  {"id":"city_almaty_kz","name":"Almaty","countryIso2":"KZ","lat":43.222,"lng":76.851,"population":2000000,"isCapital":false},
  {"id":"city_tashkent_uz","name":"Taschkent","countryIso2":"UZ","lat":41.299,"lng":69.24,"population":2571000,"isCapital":true},
  {"id":"city_sydney_au","name":"Sydney","countryIso2":"AU","lat":-33.869,"lng":151.209,"population":5312000,"isCapital":false},
  {"id":"city_melbourne_au","name":"Melbourne","countryIso2":"AU","lat":-37.814,"lng":144.963,"population":5078000,"isCapital":false},
  {"id":"city_canberra_au","name":"Canberra","countryIso2":"AU","lat":-35.282,"lng":149.129,"population":431000,"isCapital":true},
  {"id":"city_perth_au","name":"Perth","countryIso2":"AU","lat":-31.951,"lng":115.86,"population":2085000,"isCapital":false},
  {"id":"city_auckland_nz","name":"Auckland","countryIso2":"NZ","lat":-36.849,"lng":174.764,"population":1657000,"isCapital":false},
  {"id":"city_wellington_nz","name":"Wellington","countryIso2":"NZ","lat":-41.287,"lng":174.776,"population":215000,"isCapital":true},
  {"id":"city_suva_fj","name":"Suva","countryIso2":"FJ","lat":-18.141,"lng":178.442,"population":94000,"isCapital":true},
  {"id":"city_anchorage_us","name":"Anchorage","countryIso2":"US","lat":61.218,"lng":-149.9,"population":291000,"isCapital":false},
  {"id":"city_honolulu_us","name":"Honolulu","countryIso2":"US","lat":21.307,"lng":-157.858,"population":345000,"isCapital":false},
  {"id":"city_nuuk_gl","name":"Nuuk","countryIso2":"GL","lat":64.181,"lng":-51.694,"population":19000,"isCapital":true}
]
