[
  {"id":"lm_eiffel_tower","name":"Eiffelturm","countryIso2":"FR","lat":48.8584,"lng":2.2945,"category":"building","difficulty":1},
  {"id":"lm_brandenburg_gate","name":"Brandenburger Tor","countryIso2":"DE","lat":52.5163,"lng":13.3777,"category":"building","difficulty":1},
  {"id":"lm_neuschwanstein","name":"Schloss Neuschwanstein","countryIso2":"DE","lat":47.5576,"lng":10.7498,"category":"building","difficulty":2},
  {"id":"lm_cologne_cathedral","name":"Kölner Dom","countryIso2":"DE","lat":50.9413,"lng":6.9583,"category":"building","difficulty":2},
  {"id":"lm_big_ben","name":"Big Ben","countryIso2":"GB","lat":51.5007,"lng":-0.1246,"category":"building","difficulty":1},
  {"id":"lm_stonehenge","name":"Stonehenge","countryIso2":"GB","lat":51.1789,"lng":-1.8262,"category":"monument","difficulty":2},
  {"id":"lm_colosseum","name":"Kolosseum","countryIso2":"IT","lat":41.8902,"lng":12.4922,"category":"monument","difficulty":1},
  {"id":"lm_leaning_tower","name":"Schiefer Turm von Pisa","countryIso2":"IT","lat":43.7229,"lng":10.3966,"category":"building","difficulty":2},
  {"id":"lm_stpeters","name":"Petersdom","countryIso2":"VA","lat":41.9022,"lng":12.4539,"category":"building","difficulty":2},
  {"id":"lm_sagrada_familia","name":"Sagrada Família","countryIso2":"ES","lat":41.4036,"lng":2.1744,"category":"building","difficulty":2},
  {"id":"lm_alhambra","name":"Alhambra","countryIso2":"ES","lat":37.1761,"lng":-3.5881,"category":"building","difficulty":3},
  {"id":"lm_acropolis","name":"Akropolis","countryIso2":"GR","lat":37.9715,"lng":23.7267,"category":"monument","difficulty":1},
  {"id":"lm_hagia_sophia","name":"Hagia Sophia","countryIso2":"TR","lat":41.0086,"lng":28.9802,"category":"building","difficulty":2},
  {"id":"lm_red_square","name":"Roter Platz","countryIso2":"RU","lat":55.7539,"lng":37.6208,"category":"monument","difficulty":2},
  {"id":"lm_matterhorn","name":"Matterhorn","countryIso2":"CH","lat":45.9766,"lng":7.6585,"category":"nature","difficulty":2},
  {"id":"lm_mont_blanc","name":"Mont Blanc","countryIso2":"FR","lat":45.8326,"lng":6.8652,"category":"nature","difficulty":3},
  {"id":"lm_geirangerfjord","name":"Geirangerfjord","countryIso2":"NO","lat":62.1049,"lng":7.0741,"category":"nature","difficulty":3},
  {"id":"lm_blue_lagoon","name":"Blaue Lagune","countryIso2":"IS","lat":63.8804,"lng":-22.4495,"category":"nature","difficulty":3},
  {"id":"lm_statue_liberty","name":"Freiheitsstatue","countryIso2":"US","lat":40.6892,"lng":-74.0445,"category":"monument","difficulty":1},
  {"id":"lm_golden_gate","name":"Golden Gate Bridge","countryIso2":"US","lat":37.8199,"lng":-122.4783,"category":"building","difficulty":1},
  {"id":"lm_grand_canyon","name":"Grand Canyon","countryIso2":"US","lat":36.1069,"lng":-112.1129,"category":"nature","difficulty":2},
  {"id":"lm_mount_rushmore","name":"Mount Rushmore","countryIso2":"US","lat":43.8791,"lng":-103.4591,"category":"monument","difficulty":2},
  {"id":"lm_yellowstone","name":"Yellowstone (Old Faithful)","countryIso2":"US","lat":44.4605,"lng":-110.8281,"category":"nature","difficulty":3},
  {"id":"lm_niagara_falls","name":"Niagarafälle","countryIso2":"CA","lat":43.0962,"lng":-79.0377,"category":"nature","difficulty":2},
  {"id":"lm_chichen_itza","name":"Chichén Itzá","countryIso2":"MX","lat":20.6843,"lng":-88.5678,"category":"monument","difficulty":2},
  {"id":"lm_teotihuacan","name":"Teotihuacán","countryIso2":"MX","lat":19.6925,"lng":-98.8439,"category":"monument","difficulty":3},
  {"id":"lm_panama_canal","name":"Panamakanal (Miraflores)","countryIso2":"PA","lat":8.9962,"lng":-79.5912,"category":"building","difficulty":2},
  {"id":"lm_machu_picchu","name":"Machu Picchu","countryIso2":"PE","lat":-13.1631,"lng":-72.545,"category":"monument","difficulty":1},
  {"id":"lm_christ_redeemer","name":"Christus der Erlöser","countryIso2":"BR","lat":-22.9519,"lng":-43.2105,"category":"monument","difficulty":1},
  {"id":"lm_iguazu_falls","name":"Iguazú-Wasserfälle","countryIso2":"AR","lat":-25.6953,"lng":-54.4367,"category":"nature","difficulty":2},
  {"id":"lm_uyuni","name":"Salar de Uyuni","countryIso2":"BO","lat":-20.1338,"lng":-67.4891,"category":"nature","difficulty":3},
  {"id":"lm_galapagos","name":"Galápagos-Inseln","countryIso2":"EC","lat":-0.9538,"lng":-90.9656,"category":"nature","difficulty":3},
  {"id":"lm_easter_island","name":"Osterinsel (Moai)","countryIso2":"CL","lat":-27.1127,"lng":-109.3497,"category":"monument","difficulty":2},
  {"id":"lm_pyramids_giza","name":"Pyramiden von Gizeh","countryIso2":"EG","lat":29.9792,"lng":31.1342,"category":"monument","difficulty":1},
  {"id":"lm_abu_simbel","name":"Abu Simbel","countryIso2":"EG","lat":22.3372,"lng":31.6258,"category":"monument","difficulty":3},
  {"id":"lm_victoria_falls","name":"Victoriafälle","countryIso2":"ZM","lat":-17.9243,"lng":25.8572,"category":"nature","difficulty":2},
  {"id":"lm_kilimanjaro","name":"Kilimandscharo","countryIso2":"TZ","lat":-3.0674,"lng":37.3556,"category":"nature","difficulty":2},
  {"id":"lm_serengeti","name":"Serengeti","countryIso2":"TZ","lat":-2.3333,"lng":34.8333,"category":"nature","difficulty":3},
  {"id":"lm_table_mountain","name":"Tafelberg","countryIso2":"ZA","lat":-33.9628,"lng":18.4098,"category":"nature","difficulty":2},
  {"id":"lm_timbuktu","name":"Timbuktu","countryIso2":"ML","lat":16.7735,"lng":-3.0074,"category":"monument","difficulty":3},
  {"id":"lm_petra","name":"Petra","countryIso2":"JO","lat":30.3285,"lng":35.4444,"category":"monument","difficulty":2},
  {"id":"lm_burj_khalifa","name":"Burj Khalifa","countryIso2":"AE","lat":25.1972,"lng":55.2744,"category":"building","difficulty":1},
  {"id":"lm_mecca_kaaba","name":"Kaaba (Mekka)","countryIso2":"SA","lat":21.4225,"lng":39.8262,"category":"building","difficulty":2},
  {"id":"lm_dead_sea","name":"Totes Meer","countryIso2":"JO","lat":31.5,"lng":35.5,"category":"nature","difficulty":3},
  {"id":"lm_taj_mahal","name":"Taj Mahal","countryIso2":"IN","lat":27.1751,"lng":78.0421,"category":"building","difficulty":1},
  {"id":"lm_golden_temple","name":"Goldener Tempel (Amritsar)","countryIso2":"IN","lat":31.62,"lng":74.8765,"category":"building","difficulty":3},
  {"id":"lm_everest","name":"Mount Everest","countryIso2":"NP","lat":27.9881,"lng":86.925,"category":"nature","difficulty":2},
  {"id":"lm_angkor_wat","name":"Angkor Wat","countryIso2":"KH","lat":13.4125,"lng":103.867,"category":"monument","difficulty":2},
  {"id":"lm_ha_long_bay","name":"Halong-Bucht","countryIso2":"VN","lat":20.9101,"lng":107.1839,"category":"nature","difficulty":3},
  {"id":"lm_petronas","name":"Petronas Towers","countryIso2":"MY","lat":3.1579,"lng":101.7116,"category":"building","difficulty":2},
  {"id":"lm_marina_bay","name":"Marina Bay Sands","countryIso2":"SG","lat":1.2834,"lng":103.8607,"category":"building","difficulty":2},
  {"id":"lm_borobudur","name":"Borobudur","countryIso2":"ID","lat":-7.6079,"lng":110.2038,"category":"monument","difficulty":3},
  {"id":"lm_bali_uluwatu","name":"Uluwatu-Tempel (Bali)","countryIso2":"ID","lat":-8.8291,"lng":115.0849,"category":"building","difficulty":3},
  {"id":"lm_great_wall","name":"Chinesische Mauer (Badaling)","countryIso2":"CN","lat":40.3542,"lng":116.0083,"category":"monument","difficulty":1},
  {"id":"lm_forbidden_city","name":"Verbotene Stadt","countryIso2":"CN","lat":39.9163,"lng":116.3972,"category":"building","difficulty":2},
  {"id":"lm_terracotta_army","name":"Terrakotta-Armee","countryIso2":"CN","lat":34.3841,"lng":109.2785,"category":"monument","difficulty":3},
  {"id":"lm_mount_fuji","name":"Fuji","countryIso2":"JP","lat":35.3606,"lng":138.7274,"category":"nature","difficulty":1},
  {"id":"lm_fushimi_inari","name":"Fushimi Inari-Taisha","countryIso2":"JP","lat":34.9671,"lng":135.7727,"category":"building","difficulty":3},
  {"id":"lm_gyeongbokgung","name":"Gyeongbokgung","countryIso2":"KR","lat":37.5796,"lng":126.977,"category":"building","difficulty":3},
  {"id":"lm_sydney_opera","name":"Sydney Opera House","countryIso2":"AU","lat":-33.8568,"lng":151.2153,"category":"building","difficulty":1},
  {"id":"lm_uluru","name":"Uluru","countryIso2":"AU","lat":-25.3444,"lng":131.0369,"category":"nature","difficulty":2},
  {"id":"lm_great_barrier","name":"Great Barrier Reef","countryIso2":"AU","lat":-18.2871,"lng":147.6992,"category":"nature","difficulty":2},
  {"id":"lm_milford_sound","name":"Milford Sound","countryIso2":"NZ","lat":-44.6717,"lng":167.9256,"category":"nature","difficulty":3},
  {"id":"lm_bora_bora","name":"Bora Bora","countryIso2":"PF","lat":-16.5004,"lng":-151.7415,"category":"nature","difficulty":3}
]
