[{"id":"lm_eiffel_tower","name":"Eiffelturm","countryIso2":"FR","lat":48.8582,"lng":2.2945,"category":"building","difficulty":1,"image":"/landmarks/lm_eiffel_tower.jpg"},{"id":"lm_brandenburg_gate","name":"Brandenburger Tor","countryIso2":"DE","lat":52.5164,"lng":13.3778,"category":"building","difficulty":1,"image":"/landmarks/lm_brandenburg_gate.jpg"},{"id":"lm_neuschwanstein","name":"Schloss Neuschwanstein","countryIso2":"DE","lat":47.5576,"lng":10.7497,"category":"building","difficulty":2,"image":"/landmarks/lm_neuschwanstein.jpg"},{"id":"lm_cologne_cathedral","name":"Kölner Dom","countryIso2":"DE","lat":50.9413,"lng":6.9582,"category":"building","difficulty":2,"image":"/landmarks/lm_cologne_cathedral.jpg"},{"id":"lm_big_ben","name":"Big Ben","countryIso2":"GB","lat":51.5008,"lng":-0.1244,"category":"building","difficulty":1,"image":"/landmarks/lm_big_ben.jpg"},{"id":"lm_stonehenge","name":"Stonehenge","countryIso2":"GB","lat":51.1789,"lng":-1.8264,"category":"monument","difficulty":2,"image":"/landmarks/lm_stonehenge.jpg"},{"id":"lm_colosseum","name":"Kolosseum","countryIso2":"IT","lat":41.89,"lng":12.4919,"category":"monument","difficulty":1,"image":"/landmarks/lm_colosseum.jpg"},{"id":"lm_leaning_tower","name":"Schiefer Turm von Pisa","countryIso2":"IT","lat":43.723,"lng":10.3963,"category":"building","difficulty":2,"image":"/landmarks/lm_leaning_tower.jpg"},{"id":"lm_stpeters","name":"Petersdom","countryIso2":"VA","lat":41.9022,"lng":12.4533,"category":"building","difficulty":2,"image":"/landmarks/lm_stpeters.jpg"},{"id":"lm_sagrada_familia","name":"Sagrada Família","countryIso2":"ES","lat":41.4036,"lng":2.1744,"category":"building","difficulty":2,"image":"/landmarks/lm_sagrada_familia.jpg"},{"id":"lm_alhambra","name":"Alhambra","countryIso2":"ES","lat":37.1769,"lng":-3.5947,"category":"building","difficulty":3,"image":"/landmarks/lm_alhambra.jpg"},{"id":"lm_acropolis","name":"Akropolis","countryIso2":"GR","lat":37.9715,"lng":23.7265,"category":"monument","difficulty":1,"image":"/landmarks/lm_acropolis.jpg"},{"id":"lm_hagia_sophia","name":"Hagia Sophia","countryIso2":"TR","lat":41.0086,"lng":28.98,"category":"building","difficulty":2,"image":"/landmarks/lm_hagia_sophia.jpg"},{"id":"lm_red_square","name":"Roter Platz","countryIso2":"RU","lat":55.7542,"lng":37.62,"category":"place","difficulty":2,"image":"/landmarks/lm_red_square.jpg"},{"id":"lm_matterhorn","name":"Matterhorn","countryIso2":"CH","lat":45.9764,"lng":7.6586,"category":"nature","difficulty":2,"image":"/landmarks/lm_matterhorn.jpg"},{"id":"lm_mont_blanc","name":"Mont Blanc","countryIso2":"FR","lat":45.8325,"lng":6.8643,"category":"nature","difficulty":3,"image":"/landmarks/lm_mont_blanc.jpg"},{"id":"lm_geirangerfjord","name":"Geirangerfjord","countryIso2":"NO","lat":62.0944,"lng":7.0806,"category":"nature","difficulty":3,"image":"/landmarks/lm_geirangerfjord.jpg"},{"id":"lm_blue_lagoon","name":"Blaue Lagune","countryIso2":"IS","lat":63.8802,"lng":-22.449,"category":"nature","difficulty":3,"image":"/landmarks/lm_blue_lagoon.jpg"},{"id":"lm_statue_liberty","name":"Freiheitsstatue","countryIso2":"US","lat":40.6892,"lng":-74.0445,"category":"monument","difficulty":1,"image":"/landmarks/lm_statue_liberty.jpg"},{"id":"lm_golden_gate","name":"Golden Gate Bridge","countryIso2":"US","lat":37.8176,"lng":-122.4783,"category":"building","difficulty":1,"image":"/landmarks/lm_golden_gate.jpg"},{"id":"lm_grand_canyon","name":"Grand Canyon","countryIso2":"US","lat":36.1,"lng":-112.1,"category":"nature","difficulty":2,"image":"/landmarks/lm_grand_canyon.jpg"},{"id":"lm_mount_rushmore","name":"Mount Rushmore","countryIso2":"US","lat":43.879,"lng":-103.4598,"category":"monument","difficulty":2,"image":"/landmarks/lm_mount_rushmore.jpg"},{"id":"lm_yellowstone","name":"Yellowstone (Old Faithful)","countryIso2":"US","lat":44.4602,"lng":-110.8282,"category":"nature","difficulty":3,"image":"/landmarks/lm_yellowstone.jpg"},{"id":"lm_niagara_falls","name":"Niagarafälle","countryIso2":"CA","lat":43.0781,"lng":-79.0758,"category":"nature","difficulty":2,"image":"/landmarks/lm_niagara_falls.jpg"},{"id":"lm_chichen_itza","name":"Chichén Itzá","countryIso2":"MX","lat":20.6842,"lng":-88.5686,"category":"monument","difficulty":2,"image":"/landmarks/lm_chichen_itza.jpg"},{"id":"lm_teotihuacan","name":"Teotihuacán","countryIso2":"MX","lat":19.6922,"lng":-98.8442,"category":"monument","difficulty":3,"image":"/landmarks/lm_teotihuacan.jpg"},{"id":"lm_panama_canal","name":"Panamakanal (Miraflores)","countryIso2":"PA","lat":9.08,"lng":-79.68,"category":"building","difficulty":2,"image":"/landmarks/lm_panama_canal.jpg"},{"id":"lm_machu_picchu","name":"Machu Picchu","countryIso2":"PE","lat":-13.1633,"lng":-72.5456,"category":"monument","difficulty":1,"image":"/landmarks/lm_machu_picchu.jpg"},{"id":"lm_christ_redeemer","name":"Christus der Erlöser","countryIso2":"BR","lat":-22.9516,"lng":-43.2107,"category":"monument","difficulty":1,"image":"/landmarks/lm_christ_redeemer.jpg"},{"id":"lm_iguazu_falls","name":"Iguazú-Wasserfälle","countryIso2":"AR","lat":-25.6953,"lng":-54.4367,"category":"nature","difficulty":2,"image":"/landmarks/lm_iguazu_falls.jpg"},{"id":"lm_uyuni","name":"Salar de Uyuni","countryIso2":"BO","lat":-20.295,"lng":-67.5975,"category":"nature","difficulty":3,"image":"/landmarks/lm_uyuni.jpg"},{"id":"lm_galapagos","name":"Galápagos-Inseln","countryIso2":"EC","lat":-0.537,"lng":-90.521,"category":"nature","difficulty":3,"image":"/landmarks/lm_galapagos.jpg"},{"id":"lm_easter_island","name":"Osterinsel (Moai)","countryIso2":"CL","lat":-27.1194,"lng":-109.3547,"category":"monument","difficulty":2,"image":"/landmarks/lm_easter_island.jpg"},{"id":"lm_pyramids_giza","name":"Pyramiden von Gizeh","countryIso2":"EG","lat":29.9758,"lng":31.1308,"category":"monument","difficulty":1,"image":"/landmarks/lm_pyramids_giza.jpg"},{"id":"lm_abu_simbel","name":"Abu Simbel","countryIso2":"EG","lat":22.3458,"lng":31.6153,"category":"monument","difficulty":3,"image":"/landmarks/lm_abu_simbel.jpg"},{"id":"lm_victoria_falls","name":"Victoriafälle","countryIso2":"ZM","lat":-17.9245,"lng":25.855,"category":"nature","difficulty":2,"image":"/landmarks/lm_victoria_falls.jpg"},{"id":"lm_kilimanjaro","name":"Kilimandscharo","countryIso2":"TZ","lat":-3.0667,"lng":37.3592,"category":"nature","difficulty":2,"image":"/landmarks/lm_kilimanjaro.jpg"},{"id":"lm_serengeti","name":"Serengeti","countryIso2":"TZ","lat":-2.3308,"lng":34.8333,"category":"nature","difficulty":3,"image":"/landmarks/lm_serengeti.jpg"},{"id":"lm_table_mountain","name":"Tafelberg","countryIso2":"ZA","lat":-33.9654,"lng":18.4171,"category":"nature","difficulty":2,"image":"/landmarks/lm_table_mountain.jpg"},{"id":"lm_timbuktu","name":"Timbuktu","countryIso2":"ML","lat":16.7733,"lng":-3.0072,"category":"monument","difficulty":3,"image":"/landmarks/lm_timbuktu.jpg"},{"id":"lm_petra","name":"Petra","countryIso2":"JO","lat":30.3292,"lng":35.4436,"category":"monument","difficulty":2,"image":"/landmarks/lm_petra.jpg"},{"id":"lm_burj_khalifa","name":"Burj Khalifa","countryIso2":"AE","lat":25.1972,"lng":55.2742,"category":"building","difficulty":1,"image":"/landmarks/lm_burj_khalifa.jpg"},{"id":"lm_mecca_kaaba","name":"Kaaba (Mekka)","countryIso2":"SA","lat":21.4226,"lng":39.8261,"category":"building","difficulty":2,"image":"/landmarks/lm_mecca_kaaba.jpg"},{"id":"lm_dead_sea","name":"Totes Meer","countryIso2":"JO","lat":31.4908,"lng":35.4797,"category":"nature","difficulty":3,"image":"/landmarks/lm_dead_sea.jpg"},{"id":"lm_taj_mahal","name":"Taj Mahal","countryIso2":"IN","lat":27.175,"lng":78.0419,"category":"building","difficulty":1,"image":"/landmarks/lm_taj_mahal.jpg"},{"id":"lm_golden_temple","name":"Goldener Tempel (Amritsar)","countryIso2":"IN","lat":31.62,"lng":74.8767,"category":"building","difficulty":3,"image":"/landmarks/lm_golden_temple.jpg"},{"id":"lm_everest","name":"Mount Everest","countryIso2":"NP","lat":27.9882,"lng":86.925,"category":"nature","difficulty":2,"image":"/landmarks/lm_everest.jpg"},{"id":"lm_angkor_wat","name":"Angkor Wat","countryIso2":"KH","lat":13.4125,"lng":103.8668,"category":"monument","difficulty":2,"image":"/landmarks/lm_angkor_wat.jpg"},{"id":"lm_ha_long_bay","name":"Halong-Bucht","countryIso2":"VN","lat":20.85,"lng":107.15,"category":"nature","difficulty":3,"image":"/landmarks/lm_ha_long_bay.jpg"},{"id":"lm_petronas","name":"Petronas Towers","countryIso2":"MY","lat":3.1578,"lng":101.7117,"category":"building","difficulty":2,"image":"/landmarks/lm_petronas.jpg"},{"id":"lm_marina_bay","name":"Marina Bay Sands","countryIso2":"SG","lat":1.2839,"lng":103.8608,"category":"building","difficulty":2,"image":"/landmarks/lm_marina_bay.jpg"},{"id":"lm_borobudur","name":"Borobudur","countryIso2":"ID","lat":-7.6075,"lng":110.2042,"category":"monument","difficulty":3,"image":"/landmarks/lm_borobudur.jpg"},{"id":"lm_bali_uluwatu","name":"Uluwatu-Tempel (Bali)","countryIso2":"ID","lat":-8.8291,"lng":115.0849,"category":"building","difficulty":3,"image":"/landmarks/lm_bali_uluwatu.jpg"},{"id":"lm_great_wall","name":"Chinesische Mauer (Badaling)","countryIso2":"CN","lat":40.3436,"lng":116.0016,"category":"monument","difficulty":1,"image":"/landmarks/lm_great_wall.jpg"},{"id":"lm_forbidden_city","name":"Verbotene Stadt","countryIso2":"CN","lat":39.9169,"lng":116.3911,"category":"building","difficulty":2,"image":"/landmarks/lm_forbidden_city.jpg"},{"id":"lm_terracotta_army","name":"Terrakotta-Armee","countryIso2":"CN","lat":34.382,"lng":109.2535,"category":"monument","difficulty":3,"image":"/landmarks/lm_terracotta_army.jpg"},{"id":"lm_mount_fuji","name":"Fuji","countryIso2":"JP","lat":35.3606,"lng":138.7272,"category":"nature","difficulty":1,"image":"/landmarks/lm_mount_fuji.jpg"},{"id":"lm_fushimi_inari","name":"Fushimi Inari-Taisha","countryIso2":"JP","lat":34.9672,"lng":135.7732,"category":"building","difficulty":3,"image":"/landmarks/lm_fushimi_inari.jpg"},{"id":"lm_gyeongbokgung","name":"Gyeongbokgung","countryIso2":"KR","lat":37.5786,"lng":126.9772,"category":"building","difficulty":3,"image":"/landmarks/lm_gyeongbokgung.jpg"},{"id":"lm_sydney_opera","name":"Sydney Opera House","countryIso2":"AU","lat":-33.8561,"lng":151.2153,"category":"building","difficulty":1,"image":"/landmarks/lm_sydney_opera.jpg"},{"id":"lm_uluru","name":"Uluru","countryIso2":"AU","lat":-25.3453,"lng":131.0347,"category":"nature","difficulty":2,"image":"/landmarks/lm_uluru.jpg"},{"id":"lm_great_barrier","name":"Great Barrier Reef","countryIso2":"AU","lat":-19.3756,"lng":148.6956,"category":"nature","difficulty":2,"image":"/landmarks/lm_great_barrier.jpg"},{"id":"lm_milford_sound","name":"Milford Sound","countryIso2":"NZ","lat":-44.6167,"lng":167.8667,"category":"nature","difficulty":3,"image":"/landmarks/lm_milford_sound.jpg"},{"id":"lm_bora_bora","name":"Bora Bora","countryIso2":"PF","lat":-16.4931,"lng":-151.745,"category":"nature","difficulty":3,"image":"/landmarks/lm_bora_bora.jpg"},{"id":"lm_santorini","name":"Santorin","countryIso2":"GR","lat":36.4167,"lng":25.4333,"category":"nature","difficulty":1,"image":"/landmarks/lm_santorini.jpg"},{"id":"lm_cappadocia","name":"Kappadokien","countryIso2":"TR","lat":38.6706,"lng":34.8392,"category":"nature","difficulty":2,"image":"/landmarks/lm_cappadocia.jpg"},{"id":"lm_pamukkale","name":"Pamukkale","countryIso2":"TR","lat":37.9247,"lng":29.1206,"category":"nature","difficulty":2,"image":"/landmarks/lm_pamukkale.jpg"},{"id":"lm_plitvice","name":"Plitvicer Seen","countryIso2":"HR","lat":44.8804,"lng":15.616,"category":"nature","difficulty":2,"image":"/landmarks/lm_plitvice.jpg"},{"id":"lm_cliffs_moher","name":"Cliffs of Moher","countryIso2":"IE","lat":52.9361,"lng":-9.4708,"category":"nature","difficulty":2,"image":"/landmarks/lm_cliffs_moher.jpg"},{"id":"lm_dolomites","name":"Dolomiten","countryIso2":"IT","lat":46.4138,"lng":11.8398,"category":"nature","difficulty":2,"image":"/landmarks/lm_dolomites.jpg"},{"id":"lm_trolltunga","name":"Trolltunga","countryIso2":"NO","lat":60.133,"lng":6.754,"category":"nature","difficulty":3,"image":"/landmarks/lm_trolltunga.jpg"},{"id":"lm_meteora","name":"Meteora-Klöster","countryIso2":"GR","lat":39.7125,"lng":21.6267,"category":"building","difficulty":2,"image":"/landmarks/lm_meteora.jpg"},{"id":"lm_mont_saint_michel","name":"Mont-Saint-Michel","countryIso2":"FR","lat":48.6358,"lng":-1.5106,"category":"building","difficulty":2,"image":"/landmarks/lm_mont_saint_michel.jpg"},{"id":"lm_wadi_rum","name":"Wadi Rum","countryIso2":"JO","lat":29.577,"lng":35.422,"category":"nature","difficulty":2,"image":"/landmarks/lm_wadi_rum.jpg"},{"id":"lm_sahara_erg_chebbi","name":"Erg Chebbi (Sahara)","countryIso2":"MA","lat":31.1667,"lng":-3.9833,"category":"nature","difficulty":3,"image":"/landmarks/lm_sahara_erg_chebbi.jpg"},{"id":"lm_ngorongoro","name":"Ngorongoro-Krater","countryIso2":"TZ","lat":-3.1764,"lng":35.5708,"category":"nature","difficulty":3,"image":"/landmarks/lm_ngorongoro.jpg"},{"id":"lm_okavango","name":"Okavango-Delta","countryIso2":"BW","lat":-19.5,"lng":23,"category":"nature","difficulty":3,"image":"/landmarks/lm_okavango.jpg"},{"id":"lm_namib_desert","name":"Namib-Wüste (Sossusvlei)","countryIso2":"NA","lat":-24.7369,"lng":15.2869,"category":"nature","difficulty":3,"image":"/landmarks/lm_namib_desert.jpg"},{"id":"lm_zanzibar","name":"Sansibar","countryIso2":"TZ","lat":-6.1333,"lng":39.3333,"category":"nature","difficulty":2,"image":"/landmarks/lm_zanzibar.jpg"},{"id":"lm_atacama","name":"Atacama-Wüste","countryIso2":"CL","lat":-22,"lng":-69.5,"category":"nature","difficulty":3,"image":"/landmarks/lm_atacama.jpg"},{"id":"lm_torres_del_paine","name":"Torres del Paine","countryIso2":"CL","lat":-50.9831,"lng":-72.9664,"category":"nature","difficulty":3,"image":"/landmarks/lm_torres_del_paine.jpg"},{"id":"lm_amazon_rainforest","name":"Amazonas-Regenwald","countryIso2":"BR","lat":-3.13,"lng":-59.98,"category":"nature","difficulty":3,"image":"/landmarks/lm_amazon_rainforest.jpg"},{"id":"lm_angel_falls","name":"Angel Falls","countryIso2":"VE","lat":5.9675,"lng":-62.5356,"category":"nature","difficulty":3,"image":"/landmarks/lm_angel_falls.jpg"},{"id":"lm_perito_moreno","name":"Perito-Moreno-Gletscher","countryIso2":"AR","lat":-50.4833,"lng":-73.05,"category":"nature","difficulty":3,"image":"/landmarks/lm_perito_moreno.jpg"},{"id":"lm_antelope_canyon","name":"Antelope Canyon","countryIso2":"US","lat":36.8575,"lng":-111.3719,"category":"nature","difficulty":2,"image":"/landmarks/lm_antelope_canyon.jpg"},{"id":"lm_bryce_canyon","name":"Bryce Canyon","countryIso2":"US","lat":37.605,"lng":-112.1575,"category":"nature","difficulty":3,"image":"/landmarks/lm_bryce_canyon.jpg"},{"id":"lm_death_valley","name":"Death Valley","countryIso2":"US","lat":36.4617,"lng":-116.866,"category":"nature","difficulty":3,"image":"/landmarks/lm_death_valley.jpg"},{"id":"lm_banff","name":"Banff-Nationalpark","countryIso2":"CA","lat":51.6,"lng":-116.05,"category":"nature","difficulty":3,"image":"/landmarks/lm_banff.jpg"},{"id":"lm_rotorua","name":"Rotorua","countryIso2":"NZ","lat":-38.1369,"lng":176.2508,"category":"nature","difficulty":3,"image":"/landmarks/lm_rotorua.jpg"},{"id":"lm_whitsundays","name":"Whitsunday Islands","countryIso2":"AU","lat":-20.3,"lng":148.9333,"category":"nature","difficulty":3,"image":"/landmarks/lm_whitsundays.jpg"},{"id":"lm_raja_ampat","name":"Raja Ampat","countryIso2":"ID","lat":-0.8333,"lng":130.5,"category":"nature","difficulty":3,"image":"/landmarks/lm_raja_ampat.jpg"},{"id":"lm_ijen","name":"Ijen-Vulkan","countryIso2":"ID","lat":-8.0581,"lng":114.2419,"category":"nature","difficulty":3,"image":"/landmarks/lm_ijen.jpg"},{"id":"lm_zhangjiajie","name":"Zhangjiajie","countryIso2":"CN","lat":29.3274,"lng":110.416,"category":"nature","difficulty":3,"image":"/landmarks/lm_zhangjiajie.jpg"},{"id":"lm_jeju","name":"Jeju-Insel","countryIso2":"KR","lat":33.3656,"lng":126.5281,"category":"nature","difficulty":2,"image":"/landmarks/lm_jeju.jpg"},{"id":"lm_socotra","name":"Sokotra","countryIso2":"YE","lat":12.4869,"lng":53.8597,"category":"nature","difficulty":3,"image":"/landmarks/lm_socotra.jpg"},{"id":"lm_pantanal","name":"Pantanal","countryIso2":"BR","lat":-18,"lng":-56.5,"category":"nature","difficulty":3,"image":"/landmarks/lm_pantanal.jpg"},{"id":"lm_lake_baikal","name":"Baikalsee","countryIso2":"RU","lat":53.3028,"lng":108.0047,"category":"nature","difficulty":3,"image":"/landmarks/lm_lake_baikal.jpg"},{"id":"lm_faroe_islands","name":"Färöer","countryIso2":"FO","lat":61.9699,"lng":-6.8445,"category":"nature","difficulty":3,"image":"/landmarks/lm_faroe_islands.jpg"},{"id":"lm_boracay","name":"Boracay","countryIso2":"PH","lat":11.975,"lng":121.9225,"category":"nature","difficulty":3,"image":"/landmarks/lm_boracay.jpg"},{"id":"lm_el_nido","name":"El Nido (Palawan)","countryIso2":"PH","lat":11.1956,"lng":119.4075,"category":"nature","difficulty":3,"image":"/landmarks/lm_el_nido.jpg"},{"id":"lm_loch_ness","name":"Loch Ness","countryIso2":"GB","lat":57.31,"lng":-4.44,"category":"nature","difficulty":2,"image":"/landmarks/lm_loch_ness.jpg"},{"id":"lm_cinque_terre","name":"Cinque Terre","countryIso2":"IT","lat":44.1269,"lng":9.7094,"category":"nature","difficulty":2,"image":"/landmarks/lm_cinque_terre.jpg"},{"id":"lm_masai_mara","name":"Massai Mara","countryIso2":"KE","lat":-1.49,"lng":35.1439,"category":"nature","difficulty":2,"image":"/landmarks/lm_masai_mara.jpg"},{"id":"lm_tegalalang","name":"Tegalalang-Reisterrassen (Bali)","countryIso2":"ID","lat":-8.4302,"lng":115.2795,"category":"nature","difficulty":3,"image":"/landmarks/lm_tegalalang.jpg"},{"id":"lm_times_square","name":"Times Square","countryIso2":"US","lat":40.7558,"lng":-73.9864,"category":"place","difficulty":1,"image":"/landmarks/lm_times_square.jpg"},{"id":"lm_piccadilly","name":"Piccadilly Circus","countryIso2":"GB","lat":51.5099,"lng":-0.1345,"category":"place","difficulty":2,"image":"/landmarks/lm_piccadilly.jpg"},{"id":"lm_trafalgar_square","name":"Trafalgar Square","countryIso2":"GB","lat":51.5078,"lng":-0.1275,"category":"place","difficulty":2,"image":"/landmarks/lm_trafalgar_square.jpg"},{"id":"lm_champs_elysees","name":"Champs-Élysées","countryIso2":"FR","lat":48.8697,"lng":2.3075,"category":"place","difficulty":1,"image":"/landmarks/lm_champs_elysees.jpg"},{"id":"lm_shibuya","name":"Shibuya-Kreuzung","countryIso2":"JP","lat":35.664,"lng":139.6981,"category":"place","difficulty":2,"image":"/landmarks/lm_shibuya.jpg"},{"id":"lm_st_marks_square","name":"Markusplatz (Venedig)","countryIso2":"IT","lat":45.4339,"lng":12.3375,"category":"place","difficulty":2,"image":"/landmarks/lm_st_marks_square.jpg"},{"id":"lm_plaza_mayor_madrid","name":"Plaza Mayor (Madrid)","countryIso2":"ES","lat":40.4156,"lng":-3.7075,"category":"place","difficulty":3,"image":"/landmarks/lm_plaza_mayor_madrid.jpg"},{"id":"lm_zocalo","name":"Zócalo (Mexiko-Stadt)","countryIso2":"MX","lat":19.4326,"lng":-99.1332,"category":"place","difficulty":3,"image":"/landmarks/lm_zocalo.jpg"},{"id":"lm_jemaa_el_fnaa","name":"Jemaa el-Fnaa","countryIso2":"MA","lat":31.6258,"lng":-7.9894,"category":"place","difficulty":2,"image":"/landmarks/lm_jemaa_el_fnaa.jpg"},{"id":"lm_la_rambla","name":"La Rambla (Barcelona)","countryIso2":"ES","lat":41.3814,"lng":2.1731,"category":"place","difficulty":3,"image":"/landmarks/lm_la_rambla.jpg"},{"id":"lm_copacabana","name":"Copacabana (Strand)","countryIso2":"BR","lat":-22.9708,"lng":-43.1817,"category":"place","difficulty":1,"image":"/landmarks/lm_copacabana.jpg"},{"id":"lm_bondi_beach","name":"Bondi Beach","countryIso2":"AU","lat":-33.8914,"lng":151.2767,"category":"place","difficulty":2,"image":"/landmarks/lm_bondi_beach.jpg"},{"id":"lm_hollywood_sign","name":"Hollywood Sign","countryIso2":"US","lat":34.1342,"lng":-118.3214,"category":"place","difficulty":1,"image":"/landmarks/lm_hollywood_sign.jpg"},{"id":"lm_french_quarter","name":"French Quarter","countryIso2":"US","lat":29.9586,"lng":-90.065,"category":"place","difficulty":3,"image":"/landmarks/lm_french_quarter.jpg"},{"id":"lm_charles_bridge","name":"Karlsbrücke (Prag)","countryIso2":"CZ","lat":50.0864,"lng":14.4119,"category":"building","difficulty":1,"image":"/landmarks/lm_charles_bridge.jpg"},{"id":"lm_tower_bridge","name":"Tower Bridge","countryIso2":"GB","lat":51.5055,"lng":-0.0754,"category":"building","difficulty":1,"image":"/landmarks/lm_tower_bridge.jpg"},{"id":"lm_himeji_castle","name":"Himeji-jō","countryIso2":"JP","lat":34.8394,"lng":134.694,"category":"building","difficulty":3,"image":"/landmarks/lm_himeji_castle.jpg"},{"id":"lm_edinburgh_castle","name":"Edinburgh Castle","countryIso2":"GB","lat":55.9486,"lng":-3.2008,"category":"building","difficulty":2,"image":"/landmarks/lm_edinburgh_castle.jpg"},{"id":"lm_robben_island","name":"Robben Island","countryIso2":"ZA","lat":-33.8,"lng":18.3667,"category":"monument","difficulty":3,"image":"/landmarks/lm_robben_island.jpg"},{"id":"lm_djenne_mosque","name":"Große Moschee von Djenné","countryIso2":"ML","lat":13.9052,"lng":-4.5553,"category":"building","difficulty":3,"image":"/landmarks/lm_djenne_mosque.jpg"},{"id":"lm_cartagena","name":"Altstadt von Cartagena","countryIso2":"CO","lat":10.4236,"lng":-75.5253,"category":"place","difficulty":3,"image":"/landmarks/lm_cartagena.jpg"},{"id":"lm_cn_tower","name":"CN Tower","countryIso2":"CA","lat":43.6426,"lng":-79.3871,"category":"building","difficulty":2,"image":"/landmarks/lm_cn_tower.jpg"},{"id":"lm_maracana","name":"Maracanã","countryIso2":"BR","lat":-22.9122,"lng":-43.2302,"category":"building","difficulty":2,"image":"/landmarks/lm_maracana.jpg"},{"id":"lm_camp_nou","name":"Camp Nou","countryIso2":"ES","lat":41.3806,"lng":2.1228,"category":"building","difficulty":3,"image":"/landmarks/lm_camp_nou.jpg"},{"id":"lm_varanasi_ghats","name":"Ghats von Varanasi","countryIso2":"IN","lat":25.3185,"lng":82.9853,"category":"place","difficulty":3,"image":"/landmarks/lm_varanasi_ghats.jpg"}]